[
    {
        "id": 1,
        "name": "Selecta",
        "checkIns": 0,
        "street": "Salisbury Train Station",
        "city": "Salisbury",
        "region": "Wiltshire",
        "country": "United Kingdom",
        "countryLatitude": 51.495104227788566,
        "countryLongitude": -0.12381007083843397,
        "postcode": "SP2 7RS",
        "showMachine": true,
        "type": "Food",
        "inUse": false,
        "description": "A very basic vending machine selling various UK chocolates including Mars, Maltesers and Lion bars. Seen better days!",
        "latitude": 51.070404,
        "longitude": -1.806241,
        "userRating": 0,
        "numberOfRatings": 0,
        "mainPicture": "salisbury_vm_1",
        "picture2": "salisbury_vm_2",
        "picture3": "salisbury_vm_3",
        "picture4": "salisbury_vm_4"
    },
    {
        "id": 2,
        "name": "Hikobei",
        "checkIns": 0,
        "street": "1-29, Nakadai 2-Chōme",
        "city": "Kawagoe",
        "region": "Saitama",
        "country": "Japan",
        "countryLatitude": 36.56092908408071,
        "countryLongitude": 138.52347485603278,
        "postcode": "350 1159",
        "showMachine": true,
        "type": "Food",
        "inUse": true,
        "description": "A vending machine selling sweet potatoes and other produce. They also have a variey of sweet potato products.",
        "latitude": 35.89041556169066,
        "longitude": 139.47390132874546,
        "userRating": 0,
        "numberOfRatings": 0,
        "mainPicture": "kawagoe_vm_1",
        "picture2": "kawagoe_vm_2",
        "picture3": "kawagoe_vm_3",
        "picture4": "kawagoe_vm_4"
    },
    {
        "id": 3,
        "name": "TheVend",
        "checkIns": 0,
        "street": "45 Rockerfeller Plaza",
        "city": "New York City",
        "region": "New York",
        "country": "USA",
        "countryLatitude": 39.87534916593358,
        "countryLongitude": -99.80765835656211,
        "postcode": "10 111",
        "showMachine": true,
        "type": "Gadgets",
        "inUse": false,
        "description": "An entire store containing vending machines of all kinds",
        "latitude": 40.75891896696923,
        "longitude": -73.97865214418471,
        "userRating": 0,
        "numberOfRatings": 0,
        "mainPicture": "newyork_vm_1",
        "picture2": "newyork_vm_2",
        "picture3": "newyork_vm_3",
        "picture4": "newyork_vm_4"
    },
    {
        "id": 4,
        "name": "Fresh & Pure",
        "checkIns": 0,
        "street": "145 Syed Alwi Road",
        "city": "Singapore City",
        "region": "Singapore",
        "country": "Singapore",
        "countryLatitude": 1.350378478715665,
        "countryLongitude": 103.86483964796624,
        "postcode": "207 704",
        "showMachine": true,
        "type": "Drinks",
        "inUse": true,
        "description": "A vending machine dedicated to selling sugar cane juice. The cane is freshly pressed in front of you by the machine. Cheap and delicious.",
        "latitude": 1.3102250237955428,
        "longitude": 103.85543582641414,
        "userRating": 0,
        "numberOfRatings": 0,
        "mainPicture": "singapore_vm_1",
        "picture2": "singapore_vm_2",
        "picture3": "singapore_vm_3",
        "picture4": "singapore_vm_4"
    },
    {
        "id": 5,
        "name": "Two Four",
        "checkIns": 0,
        "street": "Alley 28, Lane 20, Fengjia Road",
        "city": "Xitun",
        "region": "Taichung",
        "country": "Taiwan",
        "countryLatitude": 23.479690062791654,
        "countryLongitude": 121.31220266806612,
        "postcode": "407",
        "showMachine": true,
        "type": "Food",
        "inUse": true,
        "description": "Tasty chicken feet in a vending machine! Many other Taiwanese delicacies and there is also seating so you can eat comfortably.",
        "latitude": 24.180255947160358,
        "longitude": 120.64623188336553,
        "userRating": 0,
        "numberOfRatings": 0,
        "mainPicture": "xitun_vm_1",
        "picture2": "xitun_vm_2",
        "picture3": "xitun_vm_3",
        "picture4": "xitun_vm_4"
    },
    {
        "id": 6,
        "name": "Seventeen Ice",
        "checkIns": 0,
        "street": "3, Odorihigashi 1-Chōme",
        "city": "Sapporo",
        "region": "Hokkaido",
        "country": "Japan",
        "countryLatitude": 36.56092908408071,
        "countryLongitude": 138.52347485603278,
        "postcode": "060-0041",
        "showMachine": true,
        "type": "Food",
        "inUse": true,
        "description": "Selling various flavours of 'Seventeen Ice' ice-cream, including Crispy Strawberry, Choco Mille-Feuille, Custard Purin and Muscat. The brand has been around for decades and is exclusively sold in vending machines in shopping centres and train/bus stations.",
        "latitude": 43.06343818837067,
        "longitude": 141.35728320461692,
        "userRating": 0,
        "numberOfRatings": 0,
        "mainPicture": "example_vm_1",
        "picture2": "example_vm_2",
        "picture3": "example_vm_3",
        "picture4": "example_vm_4"
    },
]
